{"text": "Interfer\u00eancia interdita Av. Imirim no sentido bairro, pr\u00f3ximo a R. Br\u00e1s Tavares. Evite a regi\u00e3o. #ZN", "dateTime": "2017-04-03T09:35:04", "lat": "-23.4867155", "lng": "-46.6528654", "address": "Av. Imirim, S\u00e3o Paulo - SP, Brazil"}
{"text": "Av. Paulista sentido Para\u00edso junto \u00e0 FIESP via liberada  #ZC", "dateTime": "2017-04-01T21:15:00", "lat": "-23.5632188", "lng": "-46.6542596", "address": "Av. Paulista, S\u00e3o Paulo - SP, Brazil"}
{"text": "Manifesta\u00e7\u00e3o interdita Av. Paulista sentido Para\u00edso junto \u00e0 FIESP. Evite a regi\u00e3o. #ZC", "dateTime": "2017-04-01T20:44:42", "lat": "-23.5632188", "lng": "-46.6542596", "address": "Av. Paulista, S\u00e3o Paulo - SP, Brazil"}
{"text": "Manifesta\u00e7\u00e3o em passeata na Av. Paulista, sentido Para\u00edso. Evite a regi\u00e3o. #ZC", "dateTime": "2017-04-01T18:58:03", "lat": "-23.5632188", "lng": "-46.6542596", "address": "Av. Paulista, S\u00e3o Paulo - SP, Brazil"}
{"text": "Manifestantes est\u00e3o na Av. Paulista, sentido Consola\u00e7\u00e3o, junto ao MASP. Evite a regi\u00e3o. #ZC", "dateTime": "2017-04-01T17:13:33", "lat": "-23.5632188", "lng": "-46.6542596", "address": "Av. Paulista, S\u00e3o Paulo - SP, Brazil"}
{"text": "Manifesta\u00e7\u00e3o em passeata na Av. Paulista, sentido Consola\u00e7\u00e3o. Evite a regi\u00e3o. #ZC", "dateTime": "2017-04-01T16:20:10", "lat": "-23.5632188", "lng": "-46.6542596", "address": "Av. Paulista, S\u00e3o Paulo - SP, Brazil"}
{"text": "Av. Imirim sentido centro,  pr\u00f3ximo \u00e0 Rua Alberto do R\u00eago Rangel, via liberada. #ZN", "dateTime": "2017-04-01T09:43:40", "lat": "-23.4867155", "lng": "-46.6528654", "address": "Av. Imirim, S\u00e3o Paulo - SP, Brazil"}
{"text": "Rua Galv\u00e3o Bueno liberada junto \u00e0 Rua S\u00e3o Joaquim.  Manifestantes na Pra\u00e7a Jo\u00e3o Mendes n\u00e3o ocupa a via. #ZC", "dateTime": "2017-03-31T20:42:15", "lat": "-23.5593316", "lng": "-46.63497479999999", "address": "R. Galv\u00e3o Bueno - Liberdade, S\u00e3o Paulo - SP, Brazil"}
{"text": "Manifesta\u00e7\u00e3o na Rua Galv\u00e3o Bueno junto \u00e0 Rua S\u00e3o Joaquim via interditada. Evite a regi\u00e3o #ZC", "dateTime": "2017-03-31T20:16:51", "lat": "-23.5593316", "lng": "-46.63497479999999", "address": "R. Galv\u00e3o Bueno - Liberdade, S\u00e3o Paulo - SP, Brazil"}
{"text": "Manifestantes na  Avenida Ipiranga, pista esquerda junto \u00e0 Pra\u00e7a da Rep\u00fablica. Evite a regi\u00e3o. #ZC", "dateTime": "2017-03-31T19:41:50", "lat": "-23.5431184", "lng": "-46.6412062", "address": "Av. Ipiranga, S\u00e3o Paulo - SP, Brazil"}
{"text": "Interfer\u00eancia na Av. Imirim n\u00ba 3764 via interditada no sentido bairro. Evite a regi\u00e3o. #ZN", "dateTime": "2017-03-31T17:49:48", "lat": "-23.4941948", "lng": "-46.6463276", "address": "Av. Imirim - Vila Ester (Zona Norte), S\u00e3o Paulo - SP, Brazil"}
{"text": "Manifestantes na Rua da Consola\u00e7\u00e3o ocupa\u00e7\u00e3o total no sentido Centro. Evite a regi\u00e3o.  #ZC", "dateTime": "2017-03-31T17:34:10", "lat": "-23.5528874", "lng": "-46.6591298", "address": "R. da Consola\u00e7\u00e3o, S\u00e3o Paulo - SP, Brazil"}
{"text": "@JulianeBacco    Boa tarde: Manifestantes na Avenida Paulista ocupa\u00e7\u00e3o total junto Rua da Consola\u00e7\u00e3o. #ZC", "dateTime": "2017-03-31T17:29:38", "lat": "-23.5632188", "lng": "-46.6542596", "address": "Av. Paulista, S\u00e3o Paulo - SP, Brazil"}
{"text": "Manifestantes em passeata na Av. Paulista em dire\u00e7\u00e3o \u00e0 Rua da Consola\u00e7\u00e3o. Evite a regi\u00e3o. #ZC", "dateTime": "2017-03-31T16:31:27", "lat": "-23.5632188", "lng": "-46.6542596", "address": "Av. Paulista, S\u00e3o Paulo - SP, Brazil"}
{"text": "Manifesta\u00e7\u00e3o interdita o Viaduto do Ch\u00e1 em ambos sentidos. Evite a regi\u00e3o. #ZC", "dateTime": "2017-03-31T15:23:14", "lat": "-23.5466688", "lng": "-46.6377687", "address": "Viaduto do Ch\u00e1, S\u00e3o Paulo - SP, Brazil"}
{"text": "@morsa_laser  Dia 31/03 at\u00e9 03/04  Av. das Na\u00e7\u00f5es Unidas sentido Interlagos ser\u00e1 interditada para obras com \u00e0 Av. Octalles M. Ferreira . #ZS", "dateTime": "2017-03-30T22:47:56", "lat": "-23.6077223", "lng": "-46.6975576", "address": "Av. das Na\u00e7\u00f5es Unidas, S\u00e3o Paulo - SP, Brazil"}
{"text": "Alameda Ministro Rocha Azevedo, junto Av. Paulista, via liberada. #ZC", "dateTime": "2017-03-30T15:50:31", "lat": "-23.5632188", "lng": "-46.6542596", "address": "Av. Paulista, S\u00e3o Paulo - SP, Brazil"}
{"text": "Interfer\u00eancia na Marg. Pinheiros, sentido Castelo Branco, pista expressa pr\u00f3ximo \u00e0 Ponte  Ary Torres. Evite a regi\u00e3o. #ZO", "dateTime": "2017-03-30T15:11:21", "lat": "-23.6238397", "lng": "-46.7098564", "address": "Via Prof. Sim\u00e3o Faiguenboim, S\u00e3o Paulo - SP, Brazil"}
{"text": "Manifesta\u00e7\u00e3o interdita Alameda Ministro Rocha Azevedo, junto Av. Paulista. Evite a regi\u00e3o. #ZC", "dateTime": "2017-03-30T14:28:51", "lat": "-23.5632188", "lng": "-46.6542596", "address": "Av. Paulista, S\u00e3o Paulo - SP, Brazil"}
{"text": "Av. Alc\u00e2ntara Machado, junto a R. Almirante Brasil, via liberada. #ZL", "dateTime": "2017-03-30T08:10:19", "lat": "-23.5476643", "lng": "-46.60231900000001", "address": "Av. Alc\u00e2ntara Machado, S\u00e3o Paulo - SP, Brazil"}
{"text": "Manifesta\u00e7\u00e3o interdita Av. Alc\u00e2ntara Machado, sentido centro, pista expressa, junto a R. Almirante Brasil. Evite a regi\u00e3o. #ZL", "dateTime": "2017-03-30T07:41:13", "lat": "-23.5476643", "lng": "-46.60231900000001", "address": "Av. Alc\u00e2ntara Machado, S\u00e3o Paulo - SP, Brazil"}
{"text": "Rua Xavier de Toledo, junto ao Viaduto do Ch\u00e1 liberada. #ZC", "dateTime": "2017-03-27T21:04:34", "lat": "-23.6603472", "lng": "-46.5247434", "address": "R. Xavier de Tol\u00eado - Centro, Santo Andr\u00e9 - SP, Brazil"}
{"text": "Manifesta\u00e7\u00e3o interdita Rua Xavier de Toledo, junto ao Viaduto do Ch\u00e1. Evite a regi\u00e3o. #ZC", "dateTime": "2017-03-27T19:18:52", "lat": "-23.6603472", "lng": "-46.5247434", "address": "R. Xavier de Tol\u00eado - Centro, Santo Andr\u00e9 - SP, Brazil"}
{"text": "Viaduto do Ch\u00e1 e Pra\u00e7a da Rep\u00fablica liberados.#ZC", "dateTime": "2017-03-27T18:44:03", "lat": "-23.4316123", "lng": "-46.5175456", "address": "Pra\u00e7a do Ch\u00e1, Guarulhos - SP, Brazil"}
{"text": "Manifestantes em passeata do Viaduto do Ch\u00e1 em dire\u00e7\u00e3o \u00e0 Pra\u00e7a da Rep\u00fablica. Evite a regi\u00e3o. #ZC", "dateTime": "2017-03-27T16:58:27", "lat": "-23.5466688", "lng": "-46.6377687", "address": "Viaduto do Ch\u00e1, S\u00e3o Paulo - SP, Brazil"}
{"text": "Manifesta\u00e7\u00e3o interdita o Viaduto do Ch\u00e1 em ambos sentidos. Evite a regi\u00e3o. #ZC", "dateTime": "2017-03-27T14:50:20", "lat": "-23.5466688", "lng": "-46.6377687", "address": "Viaduto do Ch\u00e1, S\u00e3o Paulo - SP, Brazil"}
{"text": "Av. Cel. Sezefredo Fagundes, pr\u00f3ximo a R.Kotinda, via liberada. #ZN", "dateTime": "2017-03-25T04:13:01", "lat": "-23.4237484", "lng": "-46.5899926", "address": "Av. Cel. Sezefredo Fagundes, S\u00e3o Paulo - SP, Brazil"}
{"text": "Interfer\u00eancia: Av. Cel. Sezefredo Fagundes, pr\u00f3ximo a R. Kotinda, via interditada em ambos os sentidos. Evite a regi\u00e3o. #ZN", "dateTime": "2017-03-25T03:16:01", "lat": "-23.4237484", "lng": "-46.5899926", "address": "Av. Cel. Sezefredo Fagundes, S\u00e3o Paulo - SP, Brazil"}
{"text": "Liberada Rua Faustolo e Rua Aur\u00e9lia entre a Rua Faustolo e Rua Roma. #ZO", "dateTime": "2017-03-23T21:05:35", "lat": "-23.5239075", "lng": "-46.69492390000001", "address": "R. Faustolo, S\u00e3o Paulo - SP, Brazil"}
{"text": "Liberada Rua Faustolo. Permanece a interdi\u00e7\u00e3o na Rua Aur\u00e9lia entre as Ruas Faustolo e Roma. Evite a regi\u00e3o. #ZO", "dateTime": "2017-03-23T14:59:32"}
{"text": "Liberada Rua Faustolo com a Rua Aur\u00e9lia. Permanece a interdi\u00e7\u00e3o na Rua Aur\u00e9lia entre as Ruas Cl\u00e9lia e Roma. Evite a regi\u00e3o. #ZO", "dateTime": "2017-03-23T07:54:19", "lat": "-23.5239075", "lng": "-46.69492390000001", "address": "R. Faustolo, S\u00e3o Paulo - SP, Brazil"}
{"text": "Permanece interditada Rua Faustolo com Rua Aur\u00e9lia. Evite a regi\u00e3o. #ZO", "dateTime": "2017-03-23T06:43:39", "lat": "-23.5239075", "lng": "-46.69492390000001", "address": "R. Faustolo, S\u00e3o Paulo - SP, Brazil"}
{"text": "Interfer\u00eancia: Rua Faustolo com a Rua Aur\u00e9lia via interditada. #ZO", "dateTime": "2017-03-22T22:18:46", "lat": "-23.5239075", "lng": "-46.69492390000001", "address": "R. Faustolo, S\u00e3o Paulo - SP, Brazil"}
{"text": "Av. Imirim pr\u00f3ximo \u00e0 R. Br\u00e1s Tavares, sentido bairro, ocupa\u00e7\u00e3o da faixa da direita, devido \u00e0 inc\u00eandio ocorrido, #ZN", "dateTime": "2017-03-22T02:43:43", "lat": "-23.4867155", "lng": "-46.6528654", "address": "Av. Imirim, S\u00e3o Paulo - SP, Brazil"}
{"text": "Av. Paulista com a R. da Consola\u00e7\u00e3o, via liberada. #ZC", "dateTime": "2017-03-21T18:59:01", "lat": "-23.5632188", "lng": "-46.6542596", "address": "Av. Paulista, S\u00e3o Paulo - SP, Brazil"}
{"text": "Manifestantes na Av. Paulista com R. da Consola\u00e7\u00e3o, ocupa\u00e7\u00e3o total em ambos os sentidos. Evite a regi\u00e3o. #ZC", "dateTime": "2017-03-21T18:33:38", "lat": "-23.5573363", "lng": "-46.660438", "address": "Av. Paulista, 2202 - Bela Vista, S\u00e3o Paulo - SP, 01310-300, Brazil"}
{"text": "Manifestantes em passeata do Viaduto do Ch\u00e1 em dire\u00e7\u00e3o \u00e0  Avenida Paulista. Evite a regi\u00e3o. #ZC", "dateTime": "2017-03-21T16:59:32", "lat": "-23.5466688", "lng": "-46.6377687", "address": "Viaduto do Ch\u00e1, S\u00e3o Paulo - SP, Brazil"}
{"text": "Av. Imirim permanece interditada no sentido bairro, entre as Ruas Br\u00e1s Tavares e Alberto do Rego Rangel. #ZN", "dateTime": "2017-03-21T10:12:49", "lat": "-23.4867155", "lng": "-46.6528654", "address": "Av. Imirim, S\u00e3o Paulo - SP, Brazil"}
{"text": "Av. Imirim pr\u00f3ximo \u00e0 Rua Br\u00e1s Tavares, via interditada no sentido C/B. #ZN", "dateTime": "2017-03-21T01:06:56", "lat": "-23.4867155", "lng": "-46.6528654", "address": "Av. Imirim, S\u00e3o Paulo - SP, Brazil"}
{"text": "Rua Volunt\u00e1rios da P\u00e1tria pr\u00f3ximo a Av. Braz Leme, via liberada. #ZN", "dateTime": "2017-03-21T00:33:19", "lat": "-23.4982354", "lng": "-46.6257247", "address": "R. Volunt\u00e1rios da P\u00e1tria, S\u00e3o Paulo - SP, Brazil"}
{"text": "Rua Volunt\u00e1rios da P\u00e1tria pr\u00f3ximo a Av. Braz Leme, ocupa\u00e7\u00e3o duas faixas da direita. #ZN", "dateTime": "2017-03-20T22:32:52", "lat": "-23.4982354", "lng": "-46.6257247", "address": "R. Volunt\u00e1rios da P\u00e1tria, S\u00e3o Paulo - SP, Brazil"}
{"text": "Interfer\u00eancia: Rua Volunt\u00e1rios da P\u00e1tria pr\u00f3ximo a Av. Braz Leme, via bloqueada. Evite a regi\u00e3o. #ZN", "dateTime": "2017-03-20T21:00:18", "lat": "-23.4982354", "lng": "-46.6257247", "address": "R. Volunt\u00e1rios da P\u00e1tria, S\u00e3o Paulo - SP, Brazil"}
{"text": "@raphasaragiotto   Av. Imirim pr\u00f3ximo \u00e0 Rua Br\u00e1s Tavares. Ocupa\u00e7\u00e3o apenas faixa da direita no sentido C/B. #ZN", "dateTime": "2017-03-20T20:02:34", "lat": "-23.4867155", "lng": "-46.6528654", "address": "Av. Imirim, S\u00e3o Paulo - SP, Brazil"}
{"text": "Av. Imirim pr\u00f3ximo \u00e0 R. Br\u00e1s Tavares, sentido centro via liberada, ocupa\u00e7\u00e3o apenas faixa da direita no sentido bairro,  #ZN", "dateTime": "2017-03-20T19:14:28", "lat": "-23.4867155", "lng": "-46.6528654", "address": "Av. Imirim, S\u00e3o Paulo - SP, Brazil"}
{"text": "Inc\u00eandio em estabelecimento comercial interdita Av. Imirim pr\u00f3ximo \u00e0 R. Br\u00e1s Tavares. Evite a regi\u00e3o. #ZN", "dateTime": "2017-03-20T12:49:58", "lat": "-23.4867155", "lng": "-46.6528654", "address": "Av. Imirim, S\u00e3o Paulo - SP, Brazil"}
{"text": "Rua Rego Freitas liberada junto ao Largo do Arouche. #ZC", "dateTime": "2017-03-18T19:38:46", "lat": "-23.5447116", "lng": "-46.6466012", "address": "R. R\u00eago Freitas, S\u00e3o Paulo - SP, Brazil"}
{"text": "Manifesta\u00e7\u00e3o em passeata na Rua Rego Freitas em dire\u00e7\u00e3o ao Largo do Arouche.\nEvite a regi\u00e3o. #ZC", "dateTime": "2017-03-18T18:31:58", "lat": "-23.5447116", "lng": "-46.6466012", "address": "R. R\u00eago Freitas, S\u00e3o Paulo - SP, Brazil"}
{"text": "R. Dr. Luiz Ayres, em ambos sentidos, junto ao T\u00fanel \u00c1guia de Haia. Via liberada. #ZL", "dateTime": "2017-03-17T18:07:18", "lat": "-23.6654946", "lng": "-46.6572669", "address": "Av. Cupec\u00ea, 2883 - Sala 2 - Jabaquara, S\u00e3o Paulo - SP, 04365-000, Brazil"}
{"text": "Alagamento intransit\u00e1vel na R. Dr. Luiz Ayres, em ambos sentidos, junto ao T\u00fanel \u00c1guia de Haia. Evite a regi\u00e3o. #ZL", "dateTime": "2017-03-17T17:41:14", "lat": "-23.6654946", "lng": "-46.6572669", "address": "Av. Cupec\u00ea, 2883 - Sala 2 - Jabaquara, S\u00e3o Paulo - SP, 04365-000, Brazil"}
{"text": "Rua da Consola\u00e7\u00e3o, em ambos sentidos, via liberada. #ZC", "dateTime": "2017-03-15T18:54:57", "lat": "-23.5528874", "lng": "-46.6591298", "address": "R. da Consola\u00e7\u00e3o, S\u00e3o Paulo - SP, Brazil"}
{"text": "Manifesta\u00e7\u00e3o interdita Rua da Consola\u00e7\u00e3o, ambos sentidos. Evite a regi\u00e3o. #ZC", "dateTime": "2017-03-15T17:21:08", "lat": "-23.5528874", "lng": "-46.6591298", "address": "R. da Consola\u00e7\u00e3o, S\u00e3o Paulo - SP, Brazil"}
{"text": "Viaduto do Ch\u00e1 liberado. #ZC", "dateTime": "2017-03-15T17:20:29", "lat": "-23.5466688", "lng": "-46.6377687", "address": "Viaduto do Ch\u00e1, S\u00e3o Paulo - SP, Brazil"}
{"text": "Manifesta\u00e7\u00e3o interdita Rua da Consola\u00e7\u00e3o, sentido bairro. Evite a regi\u00e3o. #ZC", "dateTime": "2017-03-15T16:56:11", "lat": "-23.5528874", "lng": "-46.6591298", "address": "R. da Consola\u00e7\u00e3o, S\u00e3o Paulo - SP, Brazil"}
{"text": "Rua S\u00e3o Carlos do Pinhal, sentido \u00fanico, liberada, junto Alameda Ministro Rocha Azevedo. #ZC", "dateTime": "2017-03-15T16:53:59", "lat": "-23.5626957", "lng": "-46.65284219999999", "address": "R. S\u00e3o Carlos do Pinhal, S\u00e3o Paulo - SP, Brazil"}
{"text": "Interfer\u00eancia interdita Rua S\u00e3o Carlos do Pinhal, sentido \u00fanico, junto Alameda Ministro Rocha Azevedo. #ZC", "dateTime": "2017-03-15T16:26:22", "lat": "-23.5626957", "lng": "-46.65284219999999", "address": "R. S\u00e3o Carlos do Pinhal, S\u00e3o Paulo - SP, Brazil"}
{"text": "Manifesta\u00e7\u00e3o interdita o Viaduto do Ch\u00e1. Evite a regi\u00e3o. #ZC", "dateTime": "2017-03-15T16:21:10", "lat": "-23.5466688", "lng": "-46.6377687", "address": "Viaduto do Ch\u00e1, S\u00e3o Paulo - SP, Brazil"}
{"text": "Rua Martins Fontes liberada junto Rua Alvaro de Carvalho. #ZC", "dateTime": "2017-03-14T16:47:18", "lat": "-23.5493299", "lng": "-46.6444024", "address": "R. Martins Fontes - Consola\u00e7\u00e3o, S\u00e3o Paulo - SP, Brazil"}
{"text": "Manifesta\u00e7\u00e3o na Rua Martins Fontes, ambos os sentidos, junto Rua Alvaro de Carvalho. Evite a regi\u00e3o. #ZC", "dateTime": "2017-03-14T15:46:19", "lat": "-23.5493299", "lng": "-46.6444024", "address": "R. Martins Fontes - Consola\u00e7\u00e3o, S\u00e3o Paulo - SP, Brazil"}
{"text": "Manifesta\u00e7\u00e3o na Av. dos Bandeirantes sentido Imigrantes, com destino Rua Martins Fontes. #ZS", "dateTime": "2017-03-14T14:28:20", "lat": "-23.6123869", "lng": "-46.67193839999999", "address": "Av. dos Bandeirantes, S\u00e3o Paulo - SP, Brazil"}
{"text": "Avenida S\u00e3o Jo\u00e3o liberada junto ao Largo do Pai\u00e7andu. #ZC", "dateTime": "2017-03-13T17:04:13", "lat": "-23.5350707", "lng": "-46.6530896", "address": "Av. S\u00e3o Jo\u00e3o - Centro, S\u00e3o Paulo - SP, Brazil"}
{"text": "Manifesta\u00e7\u00e3o na Av. S\u00e3o Jo\u00e3o junto ao Lgo do Pai\u00e7andu. Evite a regi\u00e3o. #ZC", "dateTime": "2017-03-13T16:19:27", "lat": "-23.5350707", "lng": "-46.6530896", "address": "Av. S\u00e3o Jo\u00e3o - Centro, S\u00e3o Paulo - SP, Brazil"}
{"text": "R. Augusta sentido centro, via liberada. #ZC", "dateTime": "2017-03-11T21:12:38", "lat": "33.4734978", "lng": "-82.0105148", "address": "Augusta, GA, USA"}
{"text": "Av. Paulista sentido Consola\u00e7\u00e3o via liberada, manifestantes seguem pela R. Augusta sentido centro. #ZC", "dateTime": "2017-03-11T21:01:12", "lat": "-23.5632188", "lng": "-46.6542596", "address": "Av. Paulista, S\u00e3o Paulo - SP, Brazil"}
{"text": "Av. Paulista sentido Para\u00edso via liberada, manifestantes seguem no sentido Consola\u00e7\u00e3o. #ZC", "dateTime": "2017-03-11T20:54:57", "lat": "-23.5632188", "lng": "-46.6542596", "address": "Av. Paulista, S\u00e3o Paulo - SP, Brazil"}
{"text": "Manifesta\u00e7\u00e3o na Av. Paulista sentido Paraiso. Evite a regi\u00e3o. #ZC", "dateTime": "2017-03-11T20:46:29", "lat": "-23.5632188", "lng": "-46.6542596", "address": "Av. Paulista, S\u00e3o Paulo - SP, Brazil"}
{"text": "Viaduto do Ch\u00e1,via liberada. #ZC", "dateTime": "2017-03-08T20:38:13", "lat": "-23.5466688", "lng": "-46.6377687", "address": "Viaduto do Ch\u00e1, S\u00e3o Paulo - SP, Brazil"}
{"text": "Manifestantes est\u00e3o no Viaduto do Ch\u00e1, Rua Maria Paula liberada. Evite a \u00e1rea central. #ZC", "dateTime": "2017-03-08T19:42:18", "lat": "-23.5466688", "lng": "-46.6377687", "address": "Viaduto do Ch\u00e1, S\u00e3o Paulo - SP, Brazil"}
{"text": "Manifestantes seguem em passeata pela R. Maria Paula. Av. Paulista totalmente liberada. Evite a \u00e1rea central. #ZC", "dateTime": "2017-03-08T19:02:09", "lat": "-23.4252963", "lng": "-46.3510131", "address": "R. Maria Paula - Jardim Patricia, Itaquaquecetuba - SP, 08584-120, Brazil"}
{"text": "17h35 #BelaVista: Acidente na Avenida Vinte e Tr\u00eas de Maio, sentido Aeroporto, junto R. Maestro Cardim, ocupa uma faixa. #ZC", "dateTime": "2017-02-20T17:38:35", "lat": "-23.5695703", "lng": "-46.6409202", "address": "Av. 23 de Maio, S\u00e3o Paulo - SP, Brazil"}
{"text": "14h00 #Santo Amaro: Acidente na Avenida Guido Caloi, no acesso \u00e0 Ponte Transam\u00e9rica, sentido centro ocupa uma faixa e passeio. #ZS", "dateTime": "2017-02-20T14:07:04", "lat": "-23.6558076", "lng": "-46.72433669999999", "address": "Av. Guido Caloi, S\u00e3o Paulo - SP, Brazil"}
{"text": "Rua Sabbado D' Angelo liberada em rela\u00e7\u00e3o a interfer\u00eancia. #ZL", "dateTime": "2017-06-11T02:24:25", "lat": "-23.5447937", "lng": "-46.4458657", "address": "Rua S\u00e1bbado D\u2019Angelo, S\u00e3o Paulo - SP, Brazil"}
{"text": "Referente a interfer\u00eancia na Rua Sabbado D' Angelo permanece interditado o sentido centro, liberado o sentido bairro. #ZL", "dateTime": "2017-06-10T20:44:37", "lat": "-23.5447937", "lng": "-46.4458657", "address": "Rua S\u00e1bbado D\u2019Angelo, S\u00e3o Paulo - SP, Brazil"}
{"text": "Interfer\u00eancia na Rua Sabbado D' Angelo interdita ambos os sentidos da via. Evite a regi\u00e3o> #ZL", "dateTime": "2017-06-10T17:41:04", "lat": "-23.5447937", "lng": "-46.4458657", "address": "Rua S\u00e1bbado D\u2019Angelo, S\u00e3o Paulo - SP, Brazil"}
{"text": "Av. do Estado junto \u00e0 R. Carlos de Sousa Nazar\u00e9, via liberada. #ZC", "dateTime": "2017-06-05T13:32:00", "lat": "-23.5573938", "lng": "-46.6183215", "address": "Av. do Estado, S\u00e3o Paulo - SP, Brazil"}
{"text": "Interfer\u00eancia interdita Av. do Estado, sentido Ipiranga, junto \u00e0 R. Carlos de Sousa Nazar\u00e9. Evite a regi\u00e3o. #ZC", "dateTime": "2017-06-05T13:17:35", "lat": "-23.5573938", "lng": "-46.6183215", "address": "Av. do Estado, S\u00e3o Paulo - SP, Brazil"}
{"text": "Rua Fern\u00e3o Dias junto a Rua Sumidouro. Via liberada. #ZO", "dateTime": "2017-06-04T18:52:40", "lat": "-23.5650247", "lng": "-46.69551939999999", "address": "R. Fern\u00e3o Dias - Pinheiros, S\u00e3o Paulo - SP, Brazil"}
{"text": "Manifesta\u00e7\u00e3o interdita Rua Fern\u00e3o Dias, junto a Rua Sumidouro. Evite a regi\u00e3o. #ZO", "dateTime": "2017-06-04T15:33:57", "lat": "-23.5650247", "lng": "-46.69551939999999", "address": "R. Fern\u00e3o Dias - Pinheiros, S\u00e3o Paulo - SP, Brazil"}
{"text": "Referente manifesta\u00e7\u00e3o na Av. Brig. Luis Antonio junto R. Riachuelo, via liberada. #ZC", "dateTime": "2017-05-31T13:20:02", "lat": "-23.5695895", "lng": "-46.6510282", "address": "Av. Brigadeiro Lu\u00eds Ant\u00f4nio, 2564 - Jd. Paulista, S\u00e3o Paulo - SP, 01402-000, Brazil"}
{"text": "Rua Libero Badar\u00f3 liberada em rela\u00e7\u00e3o a manifesta\u00e7\u00e3o. Manifestantes encontram-se na  Av.  Brig. Luis Antonio junto a R. Riachuelo. #ZC", "dateTime": "2017-05-31T11:59:48", "lat": "-23.546751", "lng": "-46.6364259", "address": "R. L\u00edbero Badar\u00f3, S\u00e3o Paulo - SP, Brazil"}
{"text": "Referente manifesta\u00e7\u00e3o Av. S\u00e3o Lu\u00eds sentido \u00fanico junto \u00e0 Pra\u00e7a da Rep\u00fablica. Pista liberada. #ZC", "dateTime": "2017-05-28T19:13:08", "lat": "-23.5463318", "lng": "-46.6429663", "address": "Av. S\u00e3o Lu\u00eds, S\u00e3o Paulo - SP, Brazil"}
{"text": "Manifesta\u00e7\u00e3o interdita duas faixas da Av. S\u00e3o Lu\u00eds sentido \u00fanico junto \u00e0 Pra\u00e7a da Rep\u00fablica. Evite a regi\u00e3o. #ZC", "dateTime": "2017-05-28T18:04:59", "lat": "-23.5463318", "lng": "-46.6429663", "address": "Av. S\u00e3o Lu\u00eds, S\u00e3o Paulo - SP, Brazil"}
{"text": "Manifesta\u00e7\u00e3o interdita uma faixa da Av. S\u00e3o Jo\u00e3o sentido centro junto \u00e0 Av. Duque de Caxias. Evite a regi\u00e3o. #ZC", "dateTime": "2017-05-28T17:48:47", "lat": "-23.5350707", "lng": "-46.6530896", "address": "Av. S\u00e3o Jo\u00e3o, Brazil"}
{"text": "Manifesta\u00e7\u00e3o interdita duas faixas da Av. S\u00e3o Jo\u00e3o sentido centro junto \u00e0 Av. Ang\u00e9lica. Evite a regi\u00e3o. #ZC", "dateTime": "2017-05-28T17:22:50", "lat": "-23.5350707", "lng": "-46.6530896", "address": "Av. S\u00e3o Jo\u00e3o, Brazil"}
{"text": "Referente a manifesta\u00e7\u00e3o Rua da Consola\u00e7\u00e3o via liberada.  #ZC", "dateTime": "2017-05-26T19:32:21", "lat": "-23.5617505", "lng": "-46.6691746", "address": "R. da Consola\u00e7\u00e3o, 3391 - Cerqueira C\u00e9sar, S\u00e3o Paulo - SP, 01416-001, Brazil"}
{"text": "Manifesta\u00e7\u00e3o interdita Rua da Consola\u00e7\u00e3o sentido centro, junto \u00e0 Rua Sergipe. Evite a regi\u00e3o. #ZC", "dateTime": "2017-05-26T18:24:10", "lat": "-23.5528874", "lng": "-46.6591298", "address": "R. da Consola\u00e7\u00e3o, S\u00e3o Paulo - SP, Brazil"}
{"text": "Referente a manifesta\u00e7\u00e3o em passeata,  interdita  Avenida Rio Branco junto a Avenida Ipiranga. Evite a regi\u00e3o. #ZC", "dateTime": "2017-05-26T18:20:46", "lat": "-22.9052556", "lng": "-43.1775701", "address": "Av. Rio Branco, Rio de Janeiro - RJ, Brazil"}
{"text": "Manifesta\u00e7\u00e3o em passeata interdita  Avenida Rio Branco junto a Pra\u00e7a Princesa Isabel, sentido centro. Evite a regi\u00e3o. #ZC", "dateTime": "2017-05-26T17:53:30", "lat": "-22.9052556", "lng": "-43.1775701", "address": "Av. Rio Branco, Rio de Janeiro - RJ, Brazil"}
{"text": "Manifesta\u00e7\u00e3o em passeata na R. Oriente pr\u00f3ximo a R. Maria Marcolina, via interditada. Evite a regi\u00e3o. #ZC", "dateTime": "2017-05-26T10:25:48", "lat": "-23.5379197", "lng": "-46.6183051", "address": "R. Oriente - Br\u00e1s, S\u00e3o Paulo - SP, Brazil"}
{"text": "Referente a manifesta\u00e7\u00e3o Avenida Paulista via liberada  o sentido Paraiso junto \u00e0   Rua Augusta.  #ZC", "dateTime": "2017-05-24T21:44:01", "lat": "-23.5632103", "lng": "-46.6542503", "address": "Av. Paulista, S\u00e3o Paulo - SP, Brazil"}
{"text": "Referente a manifesta\u00e7\u00e3o Avenida Paulista interditada o sentido Paraiso junto \u00e0   Rua Augusta. Evite a regi\u00e3o. #ZC", "dateTime": "2017-05-24T21:19:17"}
{"text": "Manifesta\u00e7\u00e3o interdita  Avenida Paulista junto ao MASP, sentido Consola\u00e7\u00e3o ocupa\u00e7\u00e3o total.  Evite a regi\u00e3o.  #ZC", "dateTime": "2017-05-24T20:19:00", "lat": "-23.5632103", "lng": "-46.6542503", "address": "Av. Paulista, S\u00e3o Paulo - SP, Brazil"}
{"text": "Referente manifesta\u00e7\u00e3o:  Av. Morumbi altura do N\u00ba 4500, sentido Santo Amaro,  Via liberada. #ZO", "dateTime": "2017-05-24T17:35:06", "lat": "-23.5795572", "lng": "-46.7053802", "address": "Av. Morumbi, 501 - Morumbi, S\u00e3o Paulo - SP, 05607-000, Brazil"}
{"text": "Referente manifesta\u00e7\u00e3o:  Av. Morumbi altura do N\u00ba 4500, sentido Santo Amaro, permanece a ocupa\u00e7\u00e3o de uma faixa. #ZO", "dateTime": "2017-05-24T15:57:43", "lat": "-23.5795572", "lng": "-46.7053802", "address": "Av. Morumbi, 501 - Morumbi, S\u00e3o Paulo - SP, 05607-000, Brazil"}
{"text": "Manifesta\u00e7\u00e3o interdita Av. Morumbi altura do N\u00ba 4500, sentido Santo Amaro, Evite a Regi\u00e3o. #ZO", "dateTime": "2017-05-24T15:33:05", "lat": "-23.5795572", "lng": "-46.7053802", "address": "Av. Morumbi, 501 - Morumbi, S\u00e3o Paulo - SP, 05607-000, Brazil"}
{"text": "Referente a manifesta\u00e7\u00e3o na  Av. Paulista, via liberada. #ZC", "dateTime": "2017-05-23T11:31:13", "lat": "-23.5632188", "lng": "-46.6542596", "address": "Av. Paulista, S\u00e3o Paulo - SP, Brazil"}
{"text": "Referente manifesta\u00e7\u00e3o Av. Paulista, no momento manifestantes seguem em passeata no sentido Para\u00edso pr\u00f3ximo R. Augusta. Evite regi\u00e3o. #ZC", "dateTime": "2017-05-23T11:08:36", "lat": "-23.5632188", "lng": "-46.6542596", "address": "Av. Paulista, S\u00e3o Paulo - SP, Brazil"}
{"text": "Manifesta\u00e7\u00e3o em passeata na Av. Paulista pr\u00f3ximo a Rua Augusta, sentido Consola\u00e7\u00e3o. Evite a regi\u00e3o. #ZC", "dateTime": "2017-05-23T10:28:06", "lat": "-23.5632188", "lng": "-46.6542596", "address": "Av. Paulista, S\u00e3o Paulo - SP, Brazil"}
{"text": "Referente alagamento da Avenida do Estado pr\u00f3ximo a Rua Paula Souza, via liberada. #ZC", "dateTime": "2017-05-22T12:29:24", "lat": "-23.5573938", "lng": "-46.6183215", "address": "Av. do Estado, S\u00e3o Paulo - SP, Brazil"}
{"text": "Av. Carlos Caldeira Filho, pr\u00f3ximo Av. Sabin, via liberada. #ZS", "dateTime": "2017-05-21T04:54:22", "lat": "-23.6460794", "lng": "-46.7533527", "address": "Av. Carlos Caldeira Filho, S\u00e3o Paulo - SP, Brazil"}
{"text": "Rua Prof. Oscar Barreto Filho, Rua Estela Naves Junqueira e Rua Jos\u00e9  Antunes Cerdeira, vias liberadas. #ViradaSP. #ZS", "dateTime": "2017-05-21T04:48:32", "lat": "-23.7352451", "lng": "-46.68996200000001", "address": "R. Estela Naves Junqueira - Parque America, S\u00e3o Paulo - SP, Brazil"}
{"text": "Av. Giovanni Gronchi, altura da P\u00e7 Vin\u00edcius de Moraes, via liberada. #ZS", "dateTime": "2017-05-21T00:56:57", "lat": "-23.6169631", "lng": "-46.7315754", "address": "Av. Giovanni Gronchi, S\u00e3o Paulo - SP, Brazil"}
{"text": "Rua Prof. Oscar Barreto Filho, Rua Estela Naves Junqueira e Rua Jos\u00e9  Antunes Cerdeira, vias interditadas para #ViradaSP. #ZS", "dateTime": "2017-05-20T20:34:56", "lat": "-23.7352451", "lng": "-46.68996200000001", "address": "R. Estela Naves Junqueira - Parque America, S\u00e3o Paulo - SP, Brazil"}
{"text": "Interfer\u00eancia interdita Av. Giovanni Gronchi, sentido centro, altura da P\u00e7 Vin\u00edcius de Moraes. Evite a regiao. #ZS", "dateTime": "2017-05-20T15:51:49", "lat": "-23.6169631", "lng": "-46.7315754", "address": "Av. Giovanni Gronchi, S\u00e3o Paulo - SP, Brazil"}
{"text": "Interfer\u00eancia interdita Av. Carlos Caldeira Filho, sentido bairro,  pr\u00f3ximo Av. Sabin. Desvio: R. Pde Jos\u00e9 de Jambeiro. #ZS", "dateTime": "2017-05-20T15:24:14", "lat": "-23.6460794", "lng": "-46.7533527", "address": "Av. Carlos Caldeira Filho, S\u00e3o Paulo - SP, Brazil"}
{"text": "Referente ao inc\u00eandio na Av. Otto Baumgart, via liberada. #ZN", "dateTime": "2017-05-20T11:22:39", "lat": "-23.5136119", "lng": "-46.6159969", "address": "Av. Otto Baumgart, S\u00e3o Paulo - SP, Brazil"}
{"text": "Rua Itapeva pr\u00f3ximo a Rua S\u00e3o Carlos do Pinhal. Via liberada. #ZC", "dateTime": "2017-05-19T21:17:49", "lat": "-23.5598054", "lng": "-46.6530583", "address": "R. Itapeva - Bela Vista, S\u00e3o Paulo - SP, Brazil"}
{"text": "Viaduto Jacare\u00ed liberado em rela\u00e7\u00e3o a manifesta\u00e7\u00e3o. #ZC", "dateTime": "2017-05-19T19:02:39", "lat": "-23.5509415", "lng": "-46.6412111", "address": "Viaduto Jacare\u00ed - Bela Vista, S\u00e3o Paulo - SP, 01319-020, Brazil"}
{"text": "Manifesta\u00e7\u00e3o interdita o Viaduto Jacare\u00ed, sentido \u00fanico. Evite a regi\u00e3o. #ZC", "dateTime": "2017-05-19T14:24:41", "lat": "-23.5509415", "lng": "-46.6412111", "address": "Viaduto Jacare\u00ed - Bela Vista, S\u00e3o Paulo - SP, 01319-020, Brazil"}
{"text": "Queda de \u00e1rvore  interdita Rua Itapeva pr\u00f3ximo a Rua S\u00e3o Carlos do Pinhal. Evite a regi\u00e3o. #ZC", "dateTime": "2017-05-19T12:33:11", "lat": "-23.5598054", "lng": "-46.6530583", "address": "R. Itapeva - Bela Vista, S\u00e3o Paulo - SP, Brazil"}
{"text": "Referente a manifesta\u00e7\u00e3o da Av. Paulista, via totalmente liberada. #ZC", "dateTime": "2017-05-18T22:10:46", "lat": "-23.5632188", "lng": "-46.6542596", "address": "Av. Paulista, S\u00e3o Paulo - SP, Brazil"}
{"text": "Referente a manifesta\u00e7\u00e3o da Av. Paulista, liberado sentido Consola\u00e7\u00e3o. #ZC", "dateTime": "2017-05-18T22:04:53", "lat": "-23.5632188", "lng": "-46.6542596", "address": "Av. Paulista, S\u00e3o Paulo - SP, Brazil"}
{"text": "Referente a manifesta\u00e7\u00e3o na Av. Paulista, interdita ambos sentidos junto a R. Augusta. Evite a regi\u00e3o. #ZC", "dateTime": "2017-05-18T20:03:33", "lat": "-23.5632188", "lng": "-46.6542596", "address": "Av. Paulista, S\u00e3o Paulo - SP, Brazil"}
{"text": "Referente a interfer\u00eancia da Av. Dr Eduardo Cotching  junto  P\u00e7a Nossa Senhora das Vit\u00f3rias, via liberada em ambos os sentidos. #ZL", "dateTime": "2017-05-18T19:26:09", "lat": "-23.5639908", "lng": "-46.5487214", "address": "Av. Dr. Eduardo Cotching, S\u00e3o Paulo - SP, Brazil"}
{"text": "Manifesta\u00e7\u00e3o interdita Av. Paulista  junto ao MASP, sentido Consola\u00e7\u00e3o. Evite a regi\u00e3o. #ZC", "dateTime": "2017-05-18T18:30:17", "lat": "-23.5632188", "lng": "-46.6542596", "address": "Av. Paulista, S\u00e3o Paulo - SP, Brazil"}
{"text": "Referente a manifesta\u00e7\u00e3o no Viaduto do Ch\u00e1. Via liberada. #ZC", "dateTime": "2017-05-18T18:07:59", "lat": "-23.5466665", "lng": "-46.6377639", "address": "Viaduto do Ch\u00e1 - Centro, S\u00e3o Paulo - SP, 01049-000, Brazil"}
{"text": "Referente a manifesta\u00e7\u00e3o na Av. Dr. En\u00e9as Carvalho Aguiar. Via liberada. #ZO", "dateTime": "2017-05-18T18:03:30", "lat": "-23.4501055", "lng": "-46.5449649", "address": "Av. Dr. Tim\u00f3teo Penteado - Pican\u00e7o, Guarulhos - SP, 07094-000, Brazil"}
{"text": "Manifesta\u00e7\u00e3o Interdita a Av Dr. En\u00e9as Carvalho Aguiar. Av  Rebou\u00e7as liberada.  Evite a regi\u00e3o. #ZO", "dateTime": "2017-05-18T17:14:57", "lat": "-23.5655782", "lng": "-46.6805658", "address": "Av. Rebou\u00e7as, S\u00e3o Paulo - SP, Brazil"}
{"text": "Manifesta\u00e7\u00e3o em passeata  interdita  Av. Paulista junto ao MASP, sentido Consola\u00e7\u00e3o. Evite regi\u00e3o. #ZC", "dateTime": "2017-05-18T14:59:14", "lat": "-23.5632188", "lng": "-46.6542596", "address": "Av. Paulista, S\u00e3o Paulo - SP, Brazil"}
{"text": "Av. Paulista liberada em ambos sentidos, com rela\u00e7\u00e3o a manifesta\u00e7\u00e3o. #ZC", "dateTime": "2017-05-18T02:33:38", "lat": "-23.5632188", "lng": "-46.6542596", "address": "Av. Paulista, S\u00e3o Paulo - SP, Brazil"}
{"text": "Referente a manifesta\u00e7\u00e3o, Av. Paulista liberada no sentido Consola\u00e7\u00e3o, permanece interdi\u00e7\u00e3o no sentido Para\u00edso, junto R. Augusta. #ZC", "dateTime": "2017-05-18T01:04:25", "lat": "-23.5632188", "lng": "-46.6542596", "address": "Av. Paulista, S\u00e3o Paulo - SP, Brazil"}
{"text": "Manifesta\u00e7\u00e3o interdita a Avenida Paulista junto ao MASP,  sentido Consola\u00e7\u00e3o.  #ZC", "dateTime": "2017-05-17T22:18:46", "lat": "-23.5632103", "lng": "-46.6542503", "address": "Av. Paulista, S\u00e3o Paulo - SP, Brazil"}
{"text": "Avenida Santa Catarina Junto \u00e0 Rua Cel. Ant\u00f4nio Braga, liberada em ambos sentidos. #ZS", "dateTime": "2017-05-17T01:20:36", "lat": "-27.5791393", "lng": "-48.6224392", "address": "R. do Iano, 1791 - Nossa Sra. do Rosario, S\u00e3o Jos\u00e9 - SC, 88110-603, Brazil"}
{"text": "Referente a manifesta\u00e7\u00e3o na Av. Paulista. Via liberada. #ZC", "dateTime": "2017-05-16T21:22:29", "lat": "-23.5632188", "lng": "-46.6542596", "address": "Av. Paulista, S\u00e3o Paulo - SP, Brazil"}
{"text": "Interfer\u00eancia interdita Avenida Santa Catarina Junto a Rua Cel. Ant\u00f4nio Braga, em ambos sentidos. Evite a regi\u00e3o. #ZS", "dateTime": "2017-05-16T20:37:58", "lat": "-27.5791393", "lng": "-48.6224392", "address": "R. do Iano, 1791 - Nossa Sra. do Rosario, S\u00e3o Jos\u00e9 - SC, 88110-603, Brazil"}
{"text": "Manifesta\u00e7\u00e3o em passeata na Av. Paulista, sentido Consola\u00e7\u00e3o, ocupa duas faixas. Evite a regi\u00e3o. #ZC", "dateTime": "2017-05-16T19:37:10", "lat": "-23.5632188", "lng": "-46.6542596", "address": "Av. Paulista, S\u00e3o Paulo - SP, Brazil"}
{"text": "Av. Paulista sentido Consola\u00e7\u00e3o junto R. Peixoto Gomide, via liberada. #ZC", "dateTime": "2017-05-14T08:40:41", "lat": "-23.5632188", "lng": "-46.6542596", "address": "Av. Paulista, S\u00e3o Paulo - SP, Brazil"}
{"text": "Interfer\u00eancia interdita Av. Paulista sentido Consola\u00e7\u00e3o junto R. Peixoto Gomide.\nEvite a regi\u00e3o. #ZC", "dateTime": "2017-05-14T08:34:02", "lat": "-23.5632188", "lng": "-46.6542596", "address": "Av. Paulista, S\u00e3o Paulo - SP, Brazil"}
{"text": "Rua da Consola\u00e7\u00e3o junto a Avenida Ipiranga via liberada. #ZC", "dateTime": "2017-05-13T19:02:50", "lat": "-23.5528874", "lng": "-46.6591298", "address": "R. da Consola\u00e7\u00e3o, S\u00e3o Paulo - SP, Brazil"}
{"text": "Interfer\u00eancia interdita \u00e0 Rua da Consola\u00e7\u00e3o junto a Avenida Ipiranga.  #ZC", "dateTime": "2017-05-13T18:43:24", "lat": "-23.5528874", "lng": "-46.6591298", "address": "R. da Consola\u00e7\u00e3o, S\u00e3o Paulo - SP, Brazil"}
{"text": "Manifestantes em passeta interditam \u00e1 Alameda Eduardo Prado entre a Rua Conselheiro Nebias e Rua Guaianazes.  Evite a regi\u00e3o. #ZC", "dateTime": "2017-05-13T17:56:49", "lat": "-23.5355041", "lng": "-46.645667", "address": "R. Conselheiro N\u00e9bias - Campos El\u00edseos, S\u00e3o Paulo - SP, Brazil"}
{"text": "Avenida S\u00e3o Jo\u00e3o junto \u00e0 Avenida Ipiranga e Pra\u00e7a da Rep\u00fablica, via  liberada. #ZC", "dateTime": "2017-05-13T17:52:53", "lat": "-23.5350707", "lng": "-46.6530896", "address": "Av. S\u00e3o Jo\u00e3o, Brazil"}
{"text": "Inc\u00eandio em ve\u00edculo interdita Av. Nove de Julho,  sentido bairro, Ap\u00f3s Rua Jo\u00e3o Cachoeira. Evite regi\u00e3o#ZO", "dateTime": "2017-05-12T17:25:01", "lat": "-23.5484708", "lng": "-46.6390628", "address": "9 de Julho, S\u00e3o Paulo, Brazil"}
{"text": "Interfer\u00eancia na Marg. Pinheiros, sentido Interlagos, ap\u00f3s Pte. Caio Pompeu de Toledo(Pte Morumbi). Evite a regi\u00e3o. #ZO", "dateTime": "2017-05-12T04:16:45", "lat": "-23.6238635", "lng": "-46.709926", "address": "Via Prof. Sim\u00e3o Faiguenboim, S\u00e3o Paulo - SP, Brazil"}
{"text": "Rua Iguatemi liberada em rela\u00e7\u00e3o a manifesta\u00e7\u00e3o. #ZO", "dateTime": "2017-05-08T13:49:06", "lat": "-23.5844821", "lng": "-46.68231249999999", "address": "R. Iguatemi - Itaim Bibi, S\u00e3o Paulo - SP, Brazil"}
{"text": "Av. S\u00e3o Gabriel sentido bairro, liberada em rela\u00e7\u00e3o a manifesta\u00e7\u00e3o. Manifestantes est\u00e3o pela Rua Iguatemi. #ZO", "dateTime": "2017-05-08T10:17:02", "lat": "-23.5812448", "lng": "-46.670628", "address": "Av. S\u00e3o Gabriel, S\u00e3o Paulo - SP, Brazil"}
{"text": "Manifesta\u00e7\u00e3o em carreata pela Av. Arnolfo Azevedo, sentido bairro em dire\u00e7\u00e3o  \u00e0 Rua Iguatemi. Evite a regi\u00e3o. #ZO", "dateTime": "2017-05-08T09:24:33", "lat": "-23.5452851", "lng": "-46.6677129", "address": "Av. Arnolfo Azevedo - Pacaembu, S\u00e3o Paulo - SP, Brazil"}
{"text": "Av. Atl\u00e2ntica liberada em rela\u00e7\u00e3o a interfer\u00eancia, pr\u00f3ximo \u00e0 R. Paran\u00e1polis.#ZS", "dateTime": "2017-05-07T12:48:02", "lat": "-22.9695786", "lng": "-43.1815421", "address": "Av. Atl\u00e2ntica, Rio de Janeiro, Brazil"}
{"text": "Interfer\u00eancia na Av. Atl\u00e2ntica, sentido centro, pr\u00f3ximo \u00e0 R. Paran\u00e1polis. Evite a regi\u00e3o. #ZS", "dateTime": "2017-05-07T03:58:34", "lat": "-22.9695786", "lng": "-43.1815421", "address": "Av. Atl\u00e2ntica, Rio de Janeiro, Brazil"}
{"text": "Manifestantes na Pra\u00e7a da S\u00e9, Viaduto Dona Paulina liberado. #ZC", "dateTime": "2017-05-06T19:12:53", "lat": "-23.5521441", "lng": "-46.6363563", "address": "Viaduto Dona Paulina - Centro, S\u00e3o Paulo - SP, Brazil"}
{"text": "Referente manifesta\u00e7\u00e3o: Av. Brig. Lu\u00eds Ant\u00f4nio via liberada, manifestantes seguem em passeata no Vd. Dona Paulina. Evite regi\u00e3o. #ZC", "dateTime": "2017-05-06T19:03:58", "lat": "-23.5695895", "lng": "-46.6510282", "address": "Av. Brigadeiro Lu\u00eds Ant\u00f4nio, 2564 - Jd. Paulista, S\u00e3o Paulo - SP, 01402-000, Brazil"}
{"text": "Manifesta\u00e7\u00e3o interdita Av. Paulista sentido Consola\u00e7\u00e3o junto ao MASP.  Evite a regi\u00e3o. #ZC", "dateTime": "2017-05-06T15:48:40", "lat": "-23.5632188", "lng": "-46.6542596", "address": "Av. Paulista, S\u00e3o Paulo - SP, Brazil"}
{"text": "Rua dos Pinheiros junto \u00e0 Rua Mourato Coelho liberada em rela\u00e7\u00e3o a interfer\u00eancia. #ZO", "dateTime": "2017-05-06T06:18:06", "lat": "-23.5666985", "lng": "-46.68539879999999", "address": "R. dos Pinheiros, S\u00e3o Paulo - SP, Brazil"}
{"text": "Interfer\u00eancia interdita Rua dos Pinheiros junto \u00e0 Rua Mourato Coelho. Evite a regi\u00e3o. #ZO", "dateTime": "2017-05-06T04:42:22", "lat": "-23.5666985", "lng": "-46.68539879999999", "address": "R. dos Pinheiros, S\u00e3o Paulo - SP, Brazil"}
{"text": "Rua Sena Madureira, sentido Ibirapuera, junto a Rua Marselhesa. Via liberada. #ZS", "dateTime": "2017-05-05T21:37:08", "lat": "-23.593933", "lng": "-46.6445273", "address": "R. Sena Madureira, S\u00e3o Paulo - SP, Brazil"}
{"text": "Interfer\u00eancia interdita R. Sena Madureira, sentido Ibirapuera, junto a Rua Marselhesa. Evite a regi\u00e3o. #ZS", "dateTime": "2017-05-05T21:23:19", "lat": "-23.593933", "lng": "-46.6445273", "address": "R. Sena Madureira, S\u00e3o Paulo - SP, Brazil"}
{"text": "Av. Santo Amaro, sentido centro junto a R. Bela Vista. Via liberada #ZS", "dateTime": "2017-05-05T19:59:26", "lat": "-23.617729", "lng": "-46.6818226", "address": "Av. Santo Amaro, S\u00e3o Paulo, Brazil"}
{"text": "Interfer\u00eancia interdita Avenida Santo Amaro, sentido centro, junto a Rua Bela Vista. Evite a regi\u00e3o #ZS", "dateTime": "2017-05-05T18:26:29", "lat": "-23.617729", "lng": "-46.6818226", "address": "Av. Santo Amaro, S\u00e3o Paulo, Brazil"}
{"text": "Av. Rangel Pestana ap\u00f3s Rua Anita Garibaldi, sentido bairro, via liberada. #ZC", "dateTime": "2017-05-03T13:57:43"}
{"text": "Referente a manifesta\u00e7\u00e3o, a mesma se encontra na Av. Rangel Pestana ap\u00f3s Rua Anita Garibaldi, sentido bairro. Evite a regi\u00e3o. #ZC", "dateTime": "2017-05-03T12:35:01"}
{"text": "Interfer\u00eancia interdita pista central da Marg. Tiet\u00ea, sentido Castelo Branco, ap\u00f3s Pte. Jorn Walter Abrah\u00e3o (Casa Verde). Evite a regi\u00e3o #ZN", "dateTime": "2017-05-03T04:44:00", "lat": "-23.5179366", "lng": "-46.6497264", "address": "Av. Marginal Tiet\u00ea, S\u00e3o Paulo - SP, Brazil"}
{"text": "Referente a manifesta\u00e7\u00e3o na Av. Ipiranga, via liberada. #ZC", "dateTime": "2017-05-01T22:56:55", "lat": "-23.5431184", "lng": "-46.6412062", "address": "Av. Ipiranga, S\u00e3o Paulo - SP, Brazil"}
{"text": "Manifesta\u00e7\u00e3o na Av. Ipiranga sentido \u00fanico, entre a Av. S. Jo\u00e3o e Av. S. Luis. Evite a regi\u00e3o. #ZC", "dateTime": "2017-05-01T18:23:55", "lat": "-23.5431184", "lng": "-46.6412062", "address": "Av. Ipiranga, S\u00e3o Paulo - SP, Brazil"}
{"text": "Manifesta\u00e7\u00e3o em passeata na Av. Ipiranga sentido centro com destino \u00e0 Pra\u00e7a da Rep\u00fablica. Evite a regi\u00e3o. #ZC", "dateTime": "2017-05-01T17:43:39", "lat": "-23.5431184", "lng": "-46.6412062", "address": "Av. Ipiranga, S\u00e3o Paulo - SP, Brazil"}
{"text": "Manifesta\u00e7\u00e3o em passeata na R. da Consola\u00e7\u00e3o sentido centro com destino \u00e0 Pra\u00e7a da Rep\u00fablica. Evite a regi\u00e3o. #ZC", "dateTime": "2017-05-01T16:20:59", "lat": "-23.5528874", "lng": "-46.6591298", "address": "R. da Consola\u00e7\u00e3o, S\u00e3o Paulo - SP, Brazil"}
{"text": "Interfer\u00eancia interdita Rua Aur\u00e9lia junto \u00e0 Rua Cl\u00e9lia. Evite a regi\u00e3o. #ZO", "dateTime": "2017-04-30T01:48:06", "lat": "-23.531221", "lng": "-46.6980004", "address": "R. Aur\u00e9lia, S\u00e3o Paulo - SP, Brazil"}
{"text": "Avenida Paulista sentido Para\u00edso via liberada. #ZC", "dateTime": "2017-04-28T21:35:40", "lat": "-23.5632103", "lng": "-46.6542503", "address": "Av. Paulista, S\u00e3o Paulo - SP, Brazil"}
{"text": "Manifesta\u00e7\u00e3o em movimento,  Avenida Paulista sentido Paraiso junto \u00e0 Rua Pamplona. #ZC", "dateTime": "2017-04-28T21:07:17", "lat": "-23.5632103", "lng": "-46.6542503", "address": "Av. Paulista, S\u00e3o Paulo - SP, Brazil"}
{"text": "Avenida Paulista, ambos os sentidos via liberada. #ZC", "dateTime": "2017-04-28T20:09:04", "lat": "-23.5632103", "lng": "-46.6542503", "address": "Av. Paulista, S\u00e3o Paulo - SP, Brazil"}
{"text": "Referente manifesta\u00e7\u00e3o no Viaduto do Ch\u00e1, junto \u00e0 Rua L\u00edbero Badar\u00f3. Pista liberada #ZC", "dateTime": "2017-04-28T19:35:40", "lat": "-23.5466665", "lng": "-46.6377639", "address": "Viaduto do Ch\u00e1 - Centro, S\u00e3o Paulo - SP, 01049-000, Brazil"}
{"text": "Avenida Rebou\u00e7as  no sentido centro, via liberada.  #ZO", "dateTime": "2017-04-28T18:27:09", "lat": "-23.5655782", "lng": "-46.6805658", "address": "Av. Rebou\u00e7as, S\u00e3o Paulo - SP, Brazil"}
{"text": "Rua da Consola\u00e7\u00e3o sentido bairro via liberada. #ZC", "dateTime": "2017-04-28T18:06:51", "lat": "-23.5528874", "lng": "-46.6591298", "address": "R. da Consola\u00e7\u00e3o, S\u00e3o Paulo - SP, Brazil"}
{"text": "Manifesta\u00e7\u00e3o em movimento interdita Rua da Consola\u00e7\u00e3o no sentido bairro junto \u00e0 Rua Antonia de Queiroz.  #ZC", "dateTime": "2017-04-28T17:12:51", "lat": "-23.6725248", "lng": "-46.5874673", "address": "R. Consola\u00e7\u00e3o - Vila Leonina, S\u00e3o Bernardo do Campo - SP, 09691-020, Brazil"}
{"text": "Manifesta\u00e7\u00e3o interdita Avenida Rebou\u00e7as  no sentido centro,  junto \u00e0 Rua Doutor En\u00e9as de Carvalho de Aguiar.  #ZO", "dateTime": "2017-04-28T17:04:40", "lat": "-23.5655782", "lng": "-46.6805658", "address": "Av. Rebou\u00e7as, S\u00e3o Paulo - SP, Brazil"}
{"text": "Em rela\u00e7\u00e3o a manifesta\u00e7\u00e3o,  Rua Vergueiro junto \u00e0 Rua Estela liberada.  #ZS", "dateTime": "2017-04-28T16:44:52", "lat": "-23.5927308", "lng": "-46.62093309999999", "address": "Rua Vergueiro, S\u00e3o Paulo - SP, Brazil"}
{"text": "Manifesta\u00e7\u00e3o interdita o Viaduto do Ch\u00e1, em ambos os sentidos, junto \u00e0 Rua L\u00edbero Badar\u00f3. Evite Regi\u00e3o. #ZC", "dateTime": "2017-04-28T15:46:03", "lat": "-23.5466665", "lng": "-46.6377639", "address": "Viaduto do Ch\u00e1 - Centro, S\u00e3o Paulo - SP, 01049-000, Brazil"}
{"text": "Referente manifesta\u00e7\u00e3o: Rua da Consola\u00e7\u00e3o junto \u00e0 Rua Matias Aires, sentido bairro liberada. #ZC", "dateTime": "2017-04-28T15:37:27", "lat": "-23.5528874", "lng": "-46.6591298", "address": "R. da Consola\u00e7\u00e3o, S\u00e3o Paulo - SP, Brazil"}
{"text": "Manifesta\u00e7\u00e3o interdita Avenida Paulista, sentido Para\u00edso, junto \u00e0 Rua Minas Gerais. #ZC", "dateTime": "2017-04-28T15:16:42", "lat": "-23.5632103", "lng": "-46.6542503", "address": "Av. Paulista, S\u00e3o Paulo - SP, Brazil"}
{"text": "Manifesta\u00e7\u00e3o interdita Av. Paulista, sentido Consola\u00e7\u00e3o, junto \u00e0 Rua Augusta. Evite Regi\u00e3o. #ZS", "dateTime": "2017-04-28T15:10:45", "lat": "-23.5632188", "lng": "-46.6542596", "address": "Av. Paulista, S\u00e3o Paulo - SP, Brazil"}
{"text": "Manifesta\u00e7\u00e3o em passeata interdita Av. Pe Jos\u00e9 Maria junto ao Largo Treze. Evite a regi\u00e3o. #ZS", "dateTime": "2017-04-28T12:50:32", "lat": "-23.6546048", "lng": "-46.7121394", "address": "Av. Padre Jos\u00e9 Maria - Santo Amaro, S\u00e3o Paulo - SP, Brazil"}
{"text": "Av. Ipiranga, sentido \u00fanico pista da esquerda, pr\u00f3ximo a Av. S\u00e3o Jo\u00e3o, liberada em rela\u00e7\u00e3o a manifesta\u00e7\u00e3o. #ZC", "dateTime": "2017-04-28T12:23:18", "lat": "-23.5431184", "lng": "-46.6412062", "address": "Av. Ipiranga, S\u00e3o Paulo - SP, Brazil"}
{"text": "Manifesta\u00e7\u00e3o em passeata interdita Av. Ipiranga, sentido \u00fanico pista da esquerda, pr\u00f3ximo a Av. S\u00e3o Jo\u00e3o. Evite a regi\u00e3o. #ZC", "dateTime": "2017-04-28T11:04:16", "lat": "-23.5431184", "lng": "-46.6412062", "address": "Av. Ipiranga, S\u00e3o Paulo - SP, Brazil"}
{"text": "R. Cel. Xavier de Toledo, sentido \u00fanico, pr\u00f3ximo da P\u00e7a Ramos de Azevedo, liberada em rela\u00e7\u00e3o a manifesta\u00e7\u00e3o. #ZC", "dateTime": "2017-04-28T10:14:26", "lat": "52.6175963", "lng": "10.0628515", "address": "Celle, Germany"}
{"text": "Av. Pres. Wilson em ambos os sentidos pr\u00f3ximo a R. dos Patriotas, liberada em rela\u00e7\u00e3o a manifesta\u00e7\u00e3o. #ZS", "dateTime": "2017-04-28T10:11:11", "lat": "-19.8356924", "lng": "-43.9919084", "address": "Avenida Pres., Belo Horizonte - MG, Brazil"}
{"text": "Av. do Estado sentido Santana pr\u00f3ximo a R dos Patriotas, liberada em rela\u00e7\u00e3o a manifesta\u00e7\u00e3o. #ZS", "dateTime": "2017-04-28T10:10:41", "lat": "-23.5573938", "lng": "-46.6183215", "address": "Av. do Estado, S\u00e3o Paulo - SP, Brazil"}
{"text": "Av. Brig. Faria Lima sentido Itaim junto R. Angelina Maffei Vita, liberada em rela\u00e7\u00e3o a manifesta\u00e7\u00e3o. #ZO", "dateTime": "2017-04-28T10:08:22", "lat": "-23.5695895", "lng": "-46.6510282", "address": "Av. Brigadeiro Lu\u00eds Ant\u00f4nio, 2564 - Jd. Paulista, S\u00e3o Paulo - SP, 01402-000, Brazil"}
{"text": "Av. Sapopemba sentido centro junto ao Terminal Sapopemba, via liberada em rela\u00e7\u00e3o a manifesta\u00e7\u00e3o. #ZL", "dateTime": "2017-04-28T09:47:35", "lat": "-23.6006133", "lng": "-46.5120845", "address": "Av. Sapopemba, S\u00e3o Paulo, Brazil"}
{"text": "Manifesta\u00e7\u00e3o interdita R. Cel. Xavier de Toledo, sentido \u00fanico, pr\u00f3ximo da P\u00e7a Ramos de Azevedo. Evite a regi\u00e3o. #ZC", "dateTime": "2017-04-28T09:36:13", "lat": "52.6175963", "lng": "10.0628515", "address": "Celle, Germany"}
{"text": "Manifesta\u00e7\u00e3o interdita Av. Pres. Wilson em ambos os sentidos pr\u00f3ximo a R. dos Patriotas. Evite a regi\u00e3o. #ZS", "dateTime": "2017-04-28T09:16:22", "lat": "-19.8356924", "lng": "-43.9919084", "address": "Avenida Pres., Belo Horizonte - MG, Brazil"}
{"text": "Manifesta\u00e7\u00e3o interdita Av. do Estado no sentido Santana pr\u00f3ximo a R dos Patriotas. Evite a regi\u00e3o. #ZS", "dateTime": "2017-04-28T09:03:31", "lat": "-26.9766017", "lng": "-48.6400607", "address": "Av. do Estado, 2440 - Sala 1 - Na\u00e7\u00f5es, Balne\u00e1rio Cambori\u00fa - SC, 88338-063, Brazil"}
{"text": "R. da Consola\u00e7\u00e3o no sentido bairro junto a R. Caio Prado, liberada em rela\u00e7\u00e3o a manifesta\u00e7\u00e3o. #ZC", "dateTime": "2017-04-28T09:00:21", "lat": "-23.6725248", "lng": "-46.5874673", "address": "R. Consola\u00e7\u00e3o - Vila Leonina, S\u00e3o Bernardo do Campo - SP, 09691-020, Brazil"}
{"text": "Av. Afr\u00e2nio Peixoto junto a R. Alvarenga liberada em rela\u00e7\u00e3o a manifesta\u00e7\u00e3o. #ZO", "dateTime": "2017-04-28T08:29:21", "lat": "-12.8906782", "lng": "-38.4824587", "address": "Av. Afr\u00e2nio Peixoto, Salvador - BA, Brazil"}
{"text": "Manifesta\u00e7\u00e3o interdita Av. Vital Brasil no sentido centro, junto a R. Pirajussara. Evite a regi\u00e3o. #ZO", "dateTime": "2017-04-28T08:24:13", "lat": "-23.570208", "lng": "-46.71162580000001", "address": "Av. Vital Brasil - Butant\u00e3, S\u00e3o Paulo - SP, Brazil"}
{"text": "Manifesta\u00e7\u00e3o interdita Av. Prof. Francisco Morato sentido Centro junto a R. Pur\u00e9us. Evite a regi\u00e3o. #ZO", "dateTime": "2017-04-28T08:19:28", "lat": "-23.506027", "lng": "-46.673202", "address": "Lim\u00e3o, S\u00e3o Paulo - State of S\u00e3o Paulo, 02710-030, Brazil"}
{"text": "Manifesta\u00e7\u00e3o interdita R. Cel. Xavier de Toledo sentido \u00fanico, junto ao Vd do Ch\u00e1. Evite a regi\u00e3o. #ZC", "dateTime": "2017-04-28T08:06:53", "lat": "52.6175963", "lng": "10.0628515", "address": "Celle, Germany"}
{"text": "Manifesta\u00e7\u00e3o em passeata interdita R. da Consola\u00e7\u00e3o no sentido bairro junto a R. Caio Prado. Evite a regi\u00e3o. #ZC", "dateTime": "2017-04-28T07:55:43", "lat": "-23.6725248", "lng": "-46.5874673", "address": "R. Consola\u00e7\u00e3o - Vila Leonina, S\u00e3o Bernardo do Campo - SP, 09691-020, Brazil"}
{"text": "Manifesta\u00e7\u00e3o em passeata interdita tr\u00eas faixas da Av. Brig. Faria Lima sentido Itaim junto R. Angelina Maffei Vita. Evite a regi\u00e3o. #ZO", "dateTime": "2017-04-28T07:46:41", "lat": "-23.5695895", "lng": "-46.6510282", "address": "Av. Brigadeiro Lu\u00eds Ant\u00f4nio, 2564 - Jd. Paulista, S\u00e3o Paulo - SP, 01402-000, Brazil"}
{"text": "Manifesta\u00e7\u00e3o em passeata interdita Av. Higien\u00f3polis sentido \u00fanico, junto a R. Sabar\u00e1. Evite a regi\u00e3o. #ZC", "dateTime": "2017-04-28T07:42:12", "lat": "-23.5435578", "lng": "-46.6567873", "address": "Av. Higien\u00f3polis, S\u00e3o Paulo - SP, Brazil"}
{"text": "Manifesta\u00e7\u00e3o interdita tr\u00eas faixas da Av. Brig. Faria Lima sentido Itaim junto a Alameda Gabriel Monteiro da Silva. Evite a regi\u00e3o. #ZO", "dateTime": "2017-04-28T07:31:53", "lat": "-23.5695895", "lng": "-46.6510282", "address": "Av. Brigadeiro Lu\u00eds Ant\u00f4nio, 2564 - Jd. Paulista, S\u00e3o Paulo - SP, 01402-000, Brazil"}
{"text": "Manifesta\u00e7\u00e3o interdita Av. Prof. Francisco Morato sentido Centro junto a Av. Jorge Jo\u00e3o Saad. Evite a regi\u00e3o. #ZO", "dateTime": "2017-04-28T07:16:06", "lat": "-23.506027", "lng": "-46.673202", "address": "Lim\u00e3o, S\u00e3o Paulo - State of S\u00e3o Paulo, 02710-030, Brazil"}
{"text": "Manifesta\u00e7\u00e3o interdita Av. Santos Dumont no sentido Aeroporto junto a Av. Tiradentes. Evite a regi\u00e3o. #ZC", "dateTime": "2017-04-28T07:14:06", "lat": "-3.7281196", "lng": "-38.5232823", "address": "Av. Santos Dumont, Brazil"}
{"text": "Manifesta\u00e7\u00e3o interdita Av. Vinte e Tr\u00eas de Maio em ambos os sentidos junto a P\u00e7a da Bandeira. Evite a regi\u00e3o. #ZC", "dateTime": "2017-04-28T07:10:50"}
{"text": "Manifesta\u00e7\u00e3o interdita Av. Sapopemba sentido centro junto ao Terminal Sapopemba. Evite a regi\u00e3o. #ZL", "dateTime": "2017-04-28T07:07:53", "lat": "-23.6006133", "lng": "-46.5120845", "address": "Av. Sapopemba, S\u00e3o Paulo, Brazil"}
{"text": "Av. Washington Luis pr\u00f3ximo \u00e0 R. Ot\u00e1vio Tarquinio de Sousa, via liberada.#ZS", "dateTime": "2017-04-28T05:20:02", "lat": "-23.6315305", "lng": "-46.6688851", "address": "Avenida Washington Lu\u00eds - Campo Belo, S\u00e3o Paulo - SP, Brazil"}
{"text": "R. Maria Paula junto \u00e0 R. Santo Amaro, via liberada. #ZC", "dateTime": "2017-04-28T02:18:47", "lat": "-23.4252963", "lng": "-46.3510131", "address": "R. Maria Paula - Jardim Patricia, Itaquaquecetuba - SP, 08584-120, Brazil"}
{"text": "Interfer\u00eancia interdita ambas as pistas da R. Maria Paula junto \u00e0 R. Santo Amaro. Evite a regi\u00e3o. #ZC", "dateTime": "2017-04-28T01:22:04", "lat": "-23.4252963", "lng": "-46.3510131", "address": "R. Maria Paula - Jardim Patricia, Itaquaquecetuba - SP, 08584-120, Brazil"}
{"text": "Referente ao inc\u00eandio: Rua Domingos de Morais, pr\u00f3ximo \u00e0 Av. Dr. Altino Arantes permanece a ocupa\u00e7\u00e3o de uma faixa, sentido centro. #ZS", "dateTime": "2017-04-27T15:41:39", "lat": "-23.5920041", "lng": "-46.6365035", "address": "R. Domingos de Morais, S\u00e3o Paulo - SP, Brazil"}
{"text": "Inc\u00eandio na Rua Domingos de Morais, interdita sentido centro, pr\u00f3ximo \u00e0 Av. Dr. Altino Arantes. Evite regi\u00e3o. #ZS", "dateTime": "2017-04-27T14:56:28", "lat": "-23.5920041", "lng": "-46.6365035", "address": "R. Domingos de Morais, S\u00e3o Paulo - SP, Brazil"}
{"text": "Av. Jo\u00e3o Dias sentido centro, pr\u00f3ximo a R. Francisco Ferreira Lopes, via liberada. #ZS", "dateTime": "2017-04-26T05:04:40", "lat": "-23.6449317", "lng": "-46.7188493", "address": "Av. Jo\u00e3o Dias, S\u00e3o Paulo - SP, Brazil"}
{"text": "Manifesta\u00e7\u00e3o em passeata na  Avenida Paulista, sentido Consola\u00e7\u00e3o ocupa duas faixas. Evite a regi\u00e3o. #ZC", "dateTime": "2017-04-25T19:42:09", "lat": "-23.5632103", "lng": "-46.6542503", "address": "Av. Paulista, S\u00e3o Paulo - SP, Brazil"}
{"text": "Referente a manifesta\u00e7\u00e3o na Av. Paulista, via liberada. #ZC", "dateTime": "2017-04-24T21:43:56", "lat": "-23.5632188", "lng": "-46.6542596", "address": "Av. Paulista, S\u00e3o Paulo - SP, Brazil"}
{"text": "Referente a Manifesta\u00e7\u00e3o na Av. Paulista, liberado sentido consola\u00e7\u00e3o, permanece ocupa\u00e7\u00e3o do sentido Paraiso. Evite a regi\u00e3o. #ZC", "dateTime": "2017-04-24T21:00:29", "lat": "-23.5632188", "lng": "-46.6542596", "address": "Av. Paulista, S\u00e3o Paulo - SP, Brazil"}
{"text": "Manifesta\u00e7\u00e3o interdita Av. Paulista ambos sentidos junto a Rua Augusta. Evite a regi\u00e3o.  #ZC", "dateTime": "2017-04-24T20:47:54"}
{"text": "Manifesta\u00e7\u00e3o interdita Av. Paulista sentido Consola\u00e7\u00e3o junto Alameda Casa Branca. Evite a regi\u00e3o. #ZC", "dateTime": "2017-04-24T19:18:39", "lat": "-23.5632188", "lng": "-46.6542596", "address": "Av. Paulista, S\u00e3o Paulo - SP, Brazil"}
{"text": "R. Salvador de Medeiros Liberada em rela\u00e7\u00e3o \u00e0 Interfer\u00eancia, junto \u00e0 R. Arlindo Cola\u00e7o. #ZL", "dateTime": "2017-04-23T08:11:06"}
{"text": "Interfer\u00eancia interdita a Rua Salvador de Medeiros junto \u00e0 Rua Arlindo Cola\u00e7o. Evite a regi\u00e3o. #ZL", "dateTime": "2017-04-23T04:32:38", "lat": "-23.4910032", "lng": "-46.4420335", "address": "R. Salvador de Medeiros - S\u00e3o Miguel Paulista, S\u00e3o Paulo - SP, Brazil"}
{"text": "Rompimento de adutora bloqueia: R.Dona In\u00e1cia Uchoa entre a R. Dona Brigida e Av. Eng. Luiz Gomes Cardim Sangirardi. #ZS", "dateTime": "2017-04-22T20:42:07", "lat": "-23.5843062", "lng": "-46.62995859999999", "address": "R. Dona Br\u00edgida - Vila Mariana, S\u00e3o Paulo - SP, Brazil"}
{"text": "Viaduto Jacare\u00ed, Pista liberada. #ZC", "dateTime": "2017-04-18T20:15:48", "lat": "-23.5509415", "lng": "-46.6412111", "address": "Viaduto Jacare\u00ed - Bela Vista, S\u00e3o Paulo - SP, 01319-020, Brazil"}
{"text": "Manifesta\u00e7\u00e3o interdita pista da esquerda do Viaduto Jacare\u00ed junto a Rua Santo Ant\u00f4nio. Evite a regi\u00e3o. #ZC", "dateTime": "2017-04-18T17:30:48", "lat": "-23.5509415", "lng": "-46.6412111", "address": "Viaduto Jacare\u00ed - Bela Vista, S\u00e3o Paulo - SP, 01319-020, Brazil"}
{"text": "Av. Celso Garcia via liberada. #ZL", "dateTime": "2017-04-18T13:55:22", "lat": "-23.5351863", "lng": "-46.5828245", "address": "Av. Celso Garcia, S\u00e3o Paulo - SP, Brazil"}
{"text": "Permanece interfer\u00eancia na Av. Celso Garcia junto a Rua Dr. Clementino. Evite a regi\u00e3o. #ZL", "dateTime": "2017-04-18T07:08:38", "lat": "-23.5351863", "lng": "-46.5828245", "address": "Av. Celso Garcia, S\u00e3o Paulo - SP, Brazil"}
{"text": "Interfer\u00eancia na Av. Celso Garcia junto a Rua Dr. Clementino, em ambos os sentidos, ocupa\u00e7\u00e3o total. Evite a regi\u00e3o. #ZL", "dateTime": "2017-04-17T22:47:35", "lat": "-23.5351863", "lng": "-46.5828245", "address": "Av. Celso Garcia, S\u00e3o Paulo - SP, Brazil"}
{"text": "Av. Jorn. Roberto Marinho, sentido Aeroporto via liberada. #ZS", "dateTime": "2017-04-17T14:35:58", "lat": "-23.4850233", "lng": "-46.76463330000001", "address": "Vila Jaragu\u00e1, S\u00e3o Paulo - State of S\u00e3o Paulo, 05163-000, Brazil"}
{"text": "Interfer\u00eancia na Av. Roberto Marinho , ocupa tr\u00eas faixas, sentido Aeroporto junto \u00e0 Av. Washington Lu\u00eds Evite a regi\u00e3o. #ZS", "dateTime": "2017-04-17T14:11:37", "lat": "-23.6103378", "lng": "-46.6979058", "address": "Av. Jornalista Roberto Marinho, S\u00e3o Paulo - SP, Brazil"}
{"text": "Viaduto do Ch\u00e1 liberado. #ZC", "dateTime": "2017-04-17T12:59:25", "lat": "-23.5466665", "lng": "-46.6377639", "address": "Viaduto do Ch\u00e1 - Centro, S\u00e3o Paulo - SP, 01049-000, Brazil"}
{"text": "Referente a manifesta\u00e7\u00e3o no Viaduto do Ch\u00e1, permanece ocupa\u00e7\u00e3o da faixa da direita no sentido Patriarca. #ZC", "dateTime": "2017-04-17T10:57:15", "lat": "-23.5466665", "lng": "-46.6377639", "address": "Viaduto do Ch\u00e1 - Centro, S\u00e3o Paulo - SP, 01049-000, Brazil"}
{"text": "Manifesta\u00e7\u00e3o interdita Viaduto do Ch\u00e1 em ambos os sentidos. Evite a regi\u00e3o. #ZC", "dateTime": "2017-04-17T04:31:27", "lat": "-23.5466665", "lng": "-46.6377639", "address": "Viaduto do Ch\u00e1 - Centro, S\u00e3o Paulo - SP, 01049-000, Brazil"}
{"text": "R. Cel. Xavier de Toledo,via liberada. #ZC", "dateTime": "2017-04-15T18:22:54", "lat": "52.6175963", "lng": "10.0628515", "address": "Celle, Germany"}
{"text": "Manifesta\u00e7\u00e3o em passeata na Rua Cel. Xavier de Toledo, ocupa duas faixas. Evite a regi\u00e3o. #ZC", "dateTime": "2017-04-15T17:55:38", "lat": "-22.552182", "lng": "-47.3923424", "address": "Rua Cel. - Vila Queiroz, Limeira - SP, 13485-045, Brazil"}
{"text": "Referente a interfer\u00eancia: Av. Prof. Abra\u00e3o de Morais, sentido Santos, junto Av. Bosque da Sa\u00fade, via liberada. #ZS", "dateTime": "2017-04-12T09:53:47", "lat": "-23.506027", "lng": "-46.673202", "address": "Lim\u00e3o, S\u00e3o Paulo - State of S\u00e3o Paulo, 02710-030, Brazil"}
{"text": "Interfer\u00eancia interdita Av. Prof. Abra\u00e3o de Morais, sentido Santos, junto Av. Bosque da Sa\u00fade. Evite a regi\u00e3o. #ZS", "dateTime": "2017-04-12T09:32:17", "lat": "-23.506027", "lng": "-46.673202", "address": "Lim\u00e3o, S\u00e3o Paulo - State of S\u00e3o Paulo, 02710-030, Brazil"}
{"text": "Referente a manifesta\u00e7\u00e3o: Av. Ibirapuera junto a Rua. Pedro de Toledo, sentido bairro, via liberada. #ZS", "dateTime": "2017-04-10T20:33:25", "lat": "-23.6019783", "lng": "-46.6608019", "address": "Av. Ibirapuera, S\u00e3o Paulo - SP, Brazil"}
{"text": "Av. Ibirapuera junto a Rua. Pedro de Toledo, sentido bairro bloqueda devido a manifesta\u00e7\u00e3o. Evite a regi\u00e3o. #ZS", "dateTime": "2017-04-10T20:06:26", "lat": "-23.6019783", "lng": "-46.6608019", "address": "Av. Ibirapuera, S\u00e3o Paulo - SP, Brazil"}
{"text": "Av. Paulista sentido Consola\u00e7\u00e3o, via liberada. #ZC", "dateTime": "2017-04-10T16:00:10", "lat": "-23.5632188", "lng": "-46.6542596", "address": "Av. Paulista, S\u00e3o Paulo - SP, Brazil"}
{"text": "Manifesta\u00e7\u00e3o em passeata na Av. Paulista, sentido Consola\u00e7\u00e3o. Evite a regi\u00e3o. #ZC", "dateTime": "2017-04-10T15:14:50", "lat": "-23.5632188", "lng": "-46.6542596", "address": "Av. Paulista, S\u00e3o Paulo - SP, Brazil"}
{"text": "R. Dr.Ces\u00e1rio Mota Jr., sentido \u00fanico, via liberada. #ZC", "dateTime": "2017-04-08T19:39:19", "lat": "18.735693", "lng": "-70.162651", "address": "Dominican Republic"}
{"text": "Manifesta\u00e7\u00e3o em passeata na R. Dr.Ces\u00e1rio Mota J\u00fanior, sentido \u00fanico. Evite a regi\u00e3o. #ZC", "dateTime": "2017-04-08T18:34:34", "lat": "18.735693", "lng": "-70.162651", "address": "Dominican Republic"}
{"text": "R. Dr. Penaforte Mendes, sentido \u00fanico, via liberada. #ZC", "dateTime": "2017-04-08T18:33:29", "lat": "-23.5545809", "lng": "-46.6517177", "address": "R. Dr. Penaforte Mendes - Bela Vista, S\u00e3o Paulo - SP, Brazil"}
{"text": "Manifesta\u00e7\u00e3o em movimento na R. Dr. Penaforte Mendes, sentido \u00fanico. Evite a regi\u00e3o. #ZC", "dateTime": "2017-04-08T17:33:54", "lat": "-23.5545809", "lng": "-46.6517177", "address": "R. Dr. Penaforte Mendes - Bela Vista, S\u00e3o Paulo - SP, Brazil"}
{"text": "Av. Paulista, sentido Para\u00edso, via liberada. #ZC", "dateTime": "2017-04-08T14:06:53", "lat": "-23.5632188", "lng": "-46.6542596", "address": "Av. Paulista, S\u00e3o Paulo - SP, Brazil"}
{"text": "Manifesta\u00e7\u00e3o em passeata na  Av. Paulista, sentido Para\u00edso. Evite a regi\u00e3o. #ZC", "dateTime": "2017-04-08T13:42:02", "lat": "-23.5632188", "lng": "-46.6542596", "address": "Av. Paulista, S\u00e3o Paulo - SP, Brazil"}
{"text": "Manifesta\u00e7\u00e3o em movimento na R. da Consola\u00e7\u00e3o, sentido centro. Evite a regi\u00e3o. #ZC", "dateTime": "2017-04-08T12:56:53", "lat": "-23.5528874", "lng": "-46.6591298", "address": "R. da Consola\u00e7\u00e3o, S\u00e3o Paulo - SP, Brazil"}
{"text": "Av. Paulista sentido Consola\u00e7\u00e3o junto ao MASP, via liberda. #ZC", "dateTime": "2017-04-08T12:54:14", "lat": "-23.5632188", "lng": "-46.6542596", "address": "Av. Paulista, S\u00e3o Paulo - SP, Brazil"}
{"text": "Manifesta\u00e7\u00e3o em passeata na Av. Paulista, sentido Consola\u00e7\u00e3o. Evite a regi\u00e3o. #ZC", "dateTime": "2017-04-08T12:21:38", "lat": "-23.5632188", "lng": "-46.6542596", "address": "Av. Paulista, S\u00e3o Paulo - SP, Brazil"}
{"text": "Manifesta\u00e7\u00e3o interdita Av. Paulista, sentido Consola\u00e7\u00e3o, junto ao MASP. Evite a regi\u00e3o. #ZC", "dateTime": "2017-04-08T11:40:56", "lat": "-23.5632188", "lng": "-46.6542596", "address": "Av. Paulista, S\u00e3o Paulo - SP, Brazil"}
{"text": "Av. Ermano Marchetti, sentido Barra Funda, junto a R.do Curtume, via liberada. #ZO", "dateTime": "2017-04-07T08:41:43", "lat": "-23.5147413", "lng": "-46.6990997", "address": "Av. Ermano Marchetti, S\u00e3o Paulo - SP, Brazil"}
{"text": "Av. Salim Farah Maluf, sentido Vila Prudente, junto \u00e0 Av. Prof Luiz Ign\u00e1cio de Anhaia Mello, via liberada.  #ZL", "dateTime": "2017-04-07T08:37:28", "lat": "-23.5559142", "lng": "-46.5774648", "address": "Av. Salim Farah Maluf, S\u00e3o Paulo - SP, Brazil"}
{"text": "Av. Marqu\u00eas de S\u00e3o Vicente, ambos os sentidos, junto a P\u00e7a Luiz Carlos Mesquita, via liberada.  #ZC", "dateTime": "2017-04-07T08:33:14", "lat": "-23.5191501", "lng": "-46.6751177", "address": "Av. Marqu\u00eas de S\u00e3o Vicente, S\u00e3o Paulo - SP, Brazil"}
{"text": "Alagamento intransit\u00e1vel Av. Marqu\u00eas de S\u00e3o Vicente, ambos os sentidos, junto a P\u00e7a Luiz Carlos Mesquita. Evite a regi\u00e3o. #ZO", "dateTime": "2017-04-07T06:26:08", "lat": "-23.5191501", "lng": "-46.6751177", "address": "Av. Marqu\u00eas de S\u00e3o Vicente, S\u00e3o Paulo - SP, Brazil"}
{"text": "Alagamento intransit\u00e1vel Av. Ermano Marchetti, sentido Barra Funda, junto a R.do Curtume. Evite a regi\u00e3o. #ZO", "dateTime": "2017-04-07T06:08:33", "lat": "-23.5147413", "lng": "-46.6990997", "address": "Av. Ermano Marchetti, S\u00e3o Paulo - SP, Brazil"}
{"text": "Av. Marques de S\u00e3o Vicente, ambos sentidos, junto a P\u00e7a Pascoal Martins, via liberada. #ZN", "dateTime": "2017-04-07T04:34:09", "lat": "-23.5191501", "lng": "-46.6751177", "address": "Av. Marqu\u00eas de S\u00e3o Vicente, S\u00e3o Paulo - SP, Brazil"}
{"text": "Av. Aricanduva sentido bairro junto \u00e0  Av. Itaquera, via liberada. #ZL", "dateTime": "2017-04-07T04:27:02", "lat": "-23.5665833", "lng": "-46.5072364", "address": "Avenida Aricanduva, S\u00e3o Paulo - SP, Brazil"}
{"text": "Av. Das Na\u00e7\u00f5es Unidas, pista local,  sentido Castelo, sob Ponte Eng\u00ba Roberto Rossi Zuccolo, via liberada. #ZN", "dateTime": "2017-04-07T04:20:06", "lat": "-23.6077223", "lng": "-46.6975576", "address": "Av. das Na\u00e7\u00f5es Unidas, S\u00e3o Paulo - SP, Brazil"}
{"text": "Alagamento intransit\u00e1vel  Av. Salim Farah Maluf, sentido V. Prudente, junto \u00e0 Av. Prof. Luiz Ign\u00e1cio de Anhaia Mello. Evite a regi\u00e3o. #ZL", "dateTime": "2017-04-07T02:37:26", "lat": "-23.5559142", "lng": "-46.5774648", "address": "Av. Salim Farah Maluf, S\u00e3o Paulo - SP, Brazil"}
{"text": "Alagamento intransit\u00e1vel  Av. Marques de S\u00e3o Vicente, ambos sentidos, junto a P\u00e7a Pascoal Martins.  Evite a regi\u00e3o. #ZN", "dateTime": "2017-04-07T01:06:35", "lat": "-23.5191501", "lng": "-46.6751177", "address": "Av. Marqu\u00eas de S\u00e3o Vicente, S\u00e3o Paulo - SP, Brazil"}
{"text": "Alagamento intransit\u00e1vel  Av. Das Na\u00e7\u00f5es Unidas, pista local,  sentido Castelo, sob Ponte Eng\u00ba Roberto Rossi Zuccolo.  Evite a regi\u00e3o. #ZO", "dateTime": "2017-04-07T00:31:00", "lat": "-23.6077223", "lng": "-46.6975576", "address": "Av. das Na\u00e7\u00f5es Unidas, S\u00e3o Paulo - SP, Brazil"}
{"text": "Alagamento intransit\u00e1vel  Av. Aricanduva sentido bairro junto \u00e0  Av. Itaquera. Evite a regi\u00e3o. #ZL", "dateTime": "2017-04-07T00:21:07", "lat": "-23.5665833", "lng": "-46.5072364", "address": "Avenida Aricanduva, S\u00e3o Paulo - SP, Brazil"}
{"text": "Av. Vinte e Tr\u00eas de Maio junto ao Vd. Euclides Figueiredo, via liberada. #ZS", "dateTime": "2017-04-07T00:09:42", "lat": "-23.5689056", "lng": "-46.640864", "address": "Av. 23 de Maio, S\u00e3o Paulo - SP, Brazil"}
{"text": "Av. Prof. Abra\u00e2o de Morais junto a R.Elisa Silveira, via liberada. #ZS", "dateTime": "2017-04-07T00:08:43", "lat": "-23.506027", "lng": "-46.673202", "address": "Lim\u00e3o, S\u00e3o Paulo - State of S\u00e3o Paulo, 02710-030, Brazil"}
{"text": "Alagamento intransit\u00e1vel na Av. Vinte e Tr\u00eas de Maio sentido Santana, junto ao Vd. Euclides Figueiredo, ocupa\u00e7\u00e3o total. #ZS", "dateTime": "2017-04-06T23:36:57", "lat": "-23.5689056", "lng": "-46.640864", "address": "Av. 23 de Maio, S\u00e3o Paulo - SP, Brazil"}
{"text": "Av. dos Bandeirantes, sentido Imigrantes, via liberada,  ap\u00f3s Rua Ribeiro do Vale. #ZS", "dateTime": "2017-04-06T17:31:33", "lat": "-23.6123869", "lng": "-46.67193839999999", "address": "Av. dos Bandeirantes, S\u00e3o Paulo - SP, Brazil"}
{"text": "Interfer\u00eancia na Av. dos Bandeirantes, sentido Imigrantes, ap\u00f3s Rua Ribeiro do Vale. Evite a regi\u00e3o. #ZS", "dateTime": "2017-04-06T16:19:48", "lat": "-23.6123869", "lng": "-46.67193839999999", "address": "Av. dos Bandeirantes, S\u00e3o Paulo - SP, Brazil"}
{"text": "Rua Dr. Luiz Ayres  junto \u00e0 Avenida Proeng Ardevan Machado, via liberada. #ZL", "dateTime": "2017-04-06T03:54:33", "lat": "-23.5028227", "lng": "-46.6317748", "address": "R. Dr. C\u00e9sar - Santana, S\u00e3o Paulo - SP, Brazil"}
{"text": "Av. Jo\u00e3o XXIII via liberada junto \u00e0 Av. Renata. #ZL", "dateTime": "2017-04-06T01:57:57", "lat": "-5.0785657", "lng": "-42.7510905", "address": "Av. Jo\u00e3o XXIII, 6543-6635 - Santa Isabel, Teresina - PI, 64053-410, Brazil"}
{"text": "Interfer\u00eancia interdita  Av. Jo\u00e3o XXIII em ambos os sentidos junto \u00e0 Av. Renata. Evite a regi\u00e3o. #ZL", "dateTime": "2017-04-06T01:28:25", "lat": "-23.5674586", "lng": "-46.52723779999999", "address": "Av. Jo\u00e3o XXIII - Vila Formosa, S\u00e3o Paulo - SP, Brazil"}
{"text": "Interfer\u00eancia: Rua Dr. Luiz Ayres, sentido Centro junto \u00e0 Avenida  Proeng Ardevan Machado, ocupa\u00e7\u00e3o total da via. Evite a regi\u00e3o. #ZL", "dateTime": "2017-04-05T22:55:04", "lat": "-23.5028227", "lng": "-46.6317748", "address": "R. Dr. C\u00e9sar - Santana, S\u00e3o Paulo - SP, Brazil"}
{"text": "R. Libero Badar\u00f3 pr\u00f3ximo ao Lgo. S\u00e3o Bento, via liberada. #ZC", "dateTime": "2017-04-04T15:28:41", "lat": "-23.546751", "lng": "-46.6364259", "address": "R. L\u00edbero Badar\u00f3, S\u00e3o Paulo - SP, Brazil"}
{"text": "Av. Paulista sentido Consola\u00e7\u00e3o, em frente ao pr\u00e9dio da Fiesp, via liberada. #ZC", "dateTime": "2017-04-04T12:14:55", "lat": "-23.5632188", "lng": "-46.6542596", "address": "Av. Paulista, S\u00e3o Paulo - SP, Brazil"}
{"text": "Manifesta\u00e7\u00e3o interdita R. Libero Badar\u00f3 pr\u00f3ximo ao Lgo. S\u00e3o Bento. Evite a regi\u00e3o. #ZC", "dateTime": "2017-04-04T12:10:32", "lat": "-23.546751", "lng": "-46.6364259", "address": "R. L\u00edbero Badar\u00f3, S\u00e3o Paulo - SP, Brazil"}
{"text": "Manifesta\u00e7\u00e3o interdita a faixa da direita da Av. Paulista, no sentido Consola\u00e7\u00e3o, em frente ao pr\u00e9dio da Fiesp. Evite a regi\u00e3o. #ZC", "dateTime": "2017-04-04T09:04:56", "lat": "-23.5632188", "lng": "-46.6542596", "address": "Av. Paulista, S\u00e3o Paulo - SP, Brazil"}
{"text": "Rua Augusta junto \u00e0 Rua Oscar Freire, via liberada. #ZS", "dateTime": "2017-04-03T15:53:40", "lat": "-8.2341772", "lng": "-35.7484979", "address": "R. Augusta - Centro, Bezerros - PE, 55660-000, Brazil"}
